{"type":"FeatureCollection","features":[{"type":"Feature","properties":{"id":"paris-monument-1","name":"Tour Eiffel"},"geometry":{"type":"Point","coordinates":[2.2945,48.8584]}},{"type":"Feature","properties":{"id":"paris-monument-2","name":"Musée du Louvre"},"geometry":{"type":"Point","coordinates":[2.3376,48.8606]}},{"type":"Feature","properties":{"id":"paris-monument-3","name":"Cathédrale Notre-Dame de Paris"},"geometry":{"type":"Point","coordinates":[2.3499,48.8529]}},{"type":"Feature","properties":{"id":"paris-monument-4","name":"Arc de Triomphe"},"geometry":{"type":"Point","coordinates":[2.295,48.8738]}},{"type":"Feature","properties":{"id":"paris-monument-5","name":"Sacré-Cœur"},"geometry":{"type":"Point","coordinates":[2.3431,48.8867]}},{"type":"Feature","properties":{"id":"paris-monument-6","name":"Panthéon"},"geometry":{"type":"Point","coordinates":[2.346,48.8462]}},{"type":"Feature","properties":{"id":"paris-monument-7","name":"Opéra Garnier"},"geometry":{"type":"Point","coordinates":[2.3316,48.872]}},{"type":"Feature","properties":{"id":"paris-monument-8","name":"Hôtel de Ville"},"geometry":{"type":"Point","coordinates":[2.3522,48.8566]}},{"type":"Feature","properties":{"id":"paris-monument-9","name":"Centre Pompidou"},"geometry":{"type":"Point","coordinates":[2.3522,48.8606]}},{"type":"Feature","properties":{"id":"paris-monument-10","name":"Musée d'Orsay"},"geometry":{"type":"Point","coordinates":[2.3266,48.86]}},{"type":"Feature","properties":{"id":"paris-monument-11","name":"Hôtel des Invalides"},"geometry":{"type":"Point","coordinates":[2.3126,48.8566]}},{"type":"Feature","properties":{"id":"paris-monument-12","name":"Grand Palais"},"geometry":{"type":"Point","coordinates":[2.3125,48.8661]}},{"type":"Feature","properties":{"id":"paris-monument-13","name":"Petit Palais"},"geometry":{"type":"Point","coordinates":[2.314,48.866]}},{"type":"Feature","properties":{"id":"paris-monument-14","name":"Palais de Chaillot"},"geometry":{"type":"Point","coordinates":[2.2886,48.8629]}},{"type":"Feature","properties":{"id":"paris-monument-15","name":"Palais Royal"},"geometry":{"type":"Point","coordinates":[2.3376,48.8635]}},{"type":"Feature","properties":{"id":"paris-monument-16","name":"Conciergerie"},"geometry":{"type":"Point","coordinates":[2.345,48.8559]}},{"type":"Feature","properties":{"id":"paris-monument-17","name":"Sainte-Chapelle"},"geometry":{"type":"Point","coordinates":[2.345,48.8554]}},{"type":"Feature","properties":{"id":"paris-monument-18","name":"Tour Montparnasse"},"geometry":{"type":"Point","coordinates":[2.3211,48.8421]}},{"type":"Feature","properties":{"id":"paris-monument-19","name":"Bibliothèque nationale de France"},"geometry":{"type":"Point","coordinates":[2.3765,48.8337]}},{"type":"Feature","properties":{"id":"paris-monument-20","name":"Institut du Monde Arabe"},"geometry":{"type":"Point","coordinates":[2.356,48.8499]}},{"type":"Feature","properties":{"id":"paris-monument-21","name":"Moulin Rouge"},"geometry":{"type":"Point","coordinates":[2.3322,48.8841]}},{"type":"Feature","properties":{"id":"paris-monument-22","name":"Pont Alexandre III"},"geometry":{"type":"Point","coordinates":[2.3136,48.8639]}},{"type":"Feature","properties":{"id":"paris-monument-23","name":"Pont Neuf"},"geometry":{"type":"Point","coordinates":[2.3417,48.8571]}},{"type":"Feature","properties":{"id":"paris-monument-24","name":"Pont des Arts"},"geometry":{"type":"Point","coordinates":[2.3376,48.8584]}},{"type":"Feature","properties":{"id":"paris-monument-25","name":"Pont de Bir-Hakeim"},"geometry":{"type":"Point","coordinates":[2.2876,48.8557]}},{"type":"Feature","properties":{"id":"paris-monument-26","name":"Colonne de Juillet"},"geometry":{"type":"Point","coordinates":[2.369,48.8532]}},{"type":"Feature","properties":{"id":"paris-monument-27","name":"Colonne Vendôme"},"geometry":{"type":"Point","coordinates":[2.3297,48.8675]}},{"type":"Feature","properties":{"id":"paris-monument-28","name":"Obélisque de Louxor"},"geometry":{"type":"Point","coordinates":[2.3212,48.8656]}},{"type":"Feature","properties":{"id":"paris-monument-29","name":"Église de la Madeleine"},"geometry":{"type":"Point","coordinates":[2.3244,48.8701]}},{"type":"Feature","properties":{"id":"paris-monument-30","name":"Église Saint-Sulpice"},"geometry":{"type":"Point","coordinates":[2.3344,48.851]}},{"type":"Feature","properties":{"id":"paris-monument-31","name":"Église Saint-Eustache"},"geometry":{"type":"Point","coordinates":[2.345,48.8635]}},{"type":"Feature","properties":{"id":"paris-monument-32","name":"Église Saint-Germain-des-Prés"},"geometry":{"type":"Point","coordinates":[2.3338,48.8539]}},{"type":"Feature","properties":{"id":"paris-monument-33","name":"Église Saint-Étienne-du-Mont"},"geometry":{"type":"Point","coordinates":[2.3488,48.8465]}},{"type":"Feature","properties":{"id":"paris-monument-34","name":"Église Saint-Augustin"},"geometry":{"type":"Point","coordinates":[2.3196,48.8759]}},{"type":"Feature","properties":{"id":"paris-monument-35","name":"Église Saint-Roch"},"geometry":{"type":"Point","coordinates":[2.3322,48.8656]}},{"type":"Feature","properties":{"id":"paris-monument-36","name":"Église Saint-Paul-Saint-Louis"},"geometry":{"type":"Point","coordinates":[2.3612,48.855]}},{"type":"Feature","properties":{"id":"paris-monument-37","name":"Église Saint-Gervais-Saint-Protais"},"geometry":{"type":"Point","coordinates":[2.3543,48.8556]}},{"type":"Feature","properties":{"id":"paris-monument-38","name":"Église Saint-Séverin"},"geometry":{"type":"Point","coordinates":[2.3456,48.8526]}},{"type":"Feature","properties":{"id":"paris-monument-39","name":"Église Saint-Merri"},"geometry":{"type":"Point","coordinates":[2.3509,48.8596]}},{"type":"Feature","properties":{"id":"paris-monument-40","name":"Chapelle Expiatoire"},"geometry":{"type":"Point","coordinates":[2.322,48.8737]}},{"type":"Feature","properties":{"id":"paris-monument-41","name":"Palais du Luxembourg"},"geometry":{"type":"Point","coordinates":[2.3372,48.8487]}},{"type":"Feature","properties":{"id":"paris-monument-42","name":"Palais Bourbon"},"geometry":{"type":"Point","coordinates":[2.3186,48.861]}},{"type":"Feature","properties":{"id":"paris-monument-43","name":"Palais de l'Élysée"},"geometry":{"type":"Point","coordinates":[2.3167,48.8704]}},{"type":"Feature","properties":{"id":"paris-monument-44","name":"Hôtel de Matignon"},"geometry":{"type":"Point","coordinates":[2.3205,48.8547]}},{"type":"Feature","properties":{"id":"paris-monument-45","name":"Hôtel de Sully"},"geometry":{"type":"Point","coordinates":[2.3641,48.8552]}},{"type":"Feature","properties":{"id":"paris-monument-46","name":"Hôtel de Soubise"},"geometry":{"type":"Point","coordinates":[2.3585,48.86]}},{"type":"Feature","properties":{"id":"paris-monument-47","name":"Hôtel de Sens"},"geometry":{"type":"Point","coordinates":[2.3594,48.8532]}},{"type":"Feature","properties":{"id":"paris-monument-48","name":"Hôtel de Cluny"},"geometry":{"type":"Point","coordinates":[2.3431,48.8506]}},{"type":"Feature","properties":{"id":"paris-monument-49","name":"Musée Carnavalet"},"geometry":{"type":"Point","coordinates":[2.3622,48.8577]}},{"type":"Feature","properties":{"id":"paris-monument-50","name":"Musée Picasso"},"geometry":{"type":"Point","coordinates":[2.3625,48.8599]}},{"type":"Feature","properties":{"id":"paris-monument-51","name":"Musée Rodin"},"geometry":{"type":"Point","coordinates":[2.3158,48.8554]}},{"type":"Feature","properties":{"id":"paris-monument-52","name":"Musée de l'Orangerie"},"geometry":{"type":"Point","coordinates":[2.3226,48.8638]}},{"type":"Feature","properties":{"id":"paris-monument-53","name":"Musée du quai Branly - Jacques Chirac"},"geometry":{"type":"Point","coordinates":[2.297,48.8609]}},{"type":"Feature","properties":{"id":"paris-monument-54","name":"Palais de Tokyo"},"geometry":{"type":"Point","coordinates":[2.2975,48.8641]}},{"type":"Feature","properties":{"id":"paris-monument-55","name":"Musée d'Art Moderne de Paris"},"geometry":{"type":"Point","coordinates":[2.2978,48.864]}},{"type":"Feature","properties":{"id":"paris-monument-56","name":"Musée Guimet"},"geometry":{"type":"Point","coordinates":[2.2936,48.865]}},{"type":"Feature","properties":{"id":"paris-monument-57","name":"Musée Jacquemart-André"},"geometry":{"type":"Point","coordinates":[2.3105,48.8754]}},{"type":"Feature","properties":{"id":"paris-monument-58","name":"Musée Nissim de Camondo"},"geometry":{"type":"Point","coordinates":[2.3123,48.8799]}},{"type":"Feature","properties":{"id":"paris-monument-59","name":"Musée Grévin"},"geometry":{"type":"Point","coordinates":[2.3422,48.8718]}},{"type":"Feature","properties":{"id":"paris-monument-60","name":"Musée des Arts et Métiers"},"geometry":{"type":"Point","coordinates":[2.3554,48.866]}},{"type":"Feature","properties":{"id":"paris-monument-61","name":"Musée Marmottan Monet"},"geometry":{"type":"Point","coordinates":[2.2673,48.8591]}},{"type":"Feature","properties":{"id":"paris-monument-62","name":"Fondation Louis Vuitton"},"geometry":{"type":"Point","coordinates":[2.263,48.8766]}},{"type":"Feature","properties":{"id":"paris-monument-63","name":"Philharmonie de Paris"},"geometry":{"type":"Point","coordinates":[2.394,48.8915]}},{"type":"Feature","properties":{"id":"paris-monument-64","name":"Grande Halle de la Villette"},"geometry":{"type":"Point","coordinates":[2.3902,48.8893]}},{"type":"Feature","properties":{"id":"paris-monument-65","name":"Opéra Bastille"},"geometry":{"type":"Point","coordinates":[2.3701,48.8529]}},{"type":"Feature","properties":{"id":"paris-monument-66","name":"Comédie-Française"},"geometry":{"type":"Point","coordinates":[2.3366,48.8636]}},{"type":"Feature","properties":{"id":"paris-monument-67","name":"Théâtre du Châtelet"},"geometry":{"type":"Point","coordinates":[2.3468,48.8578]}},{"type":"Feature","properties":{"id":"paris-monument-68","name":"Théâtre de la Ville"},"geometry":{"type":"Point","coordinates":[2.3472,48.8575]}},{"type":"Feature","properties":{"id":"paris-monument-69","name":"Théâtre des Champs-Élysées"},"geometry":{"type":"Point","coordinates":[2.3012,48.8654]}},{"type":"Feature","properties":{"id":"paris-monument-70","name":"Olympia"},"geometry":{"type":"Point","coordinates":[2.3284,48.8708]}},{"type":"Feature","properties":{"id":"paris-monument-71","name":"Accor Arena"},"geometry":{"type":"Point","coordinates":[2.3786,48.8386]}},{"type":"Feature","properties":{"id":"paris-monument-72","name":"Stade Roland-Garros"},"geometry":{"type":"Point","coordinates":[2.2493,48.847]}},{"type":"Feature","properties":{"id":"paris-monument-73","name":"Gare du Nord"},"geometry":{"type":"Point","coordinates":[2.3553,48.8809]}},{"type":"Feature","properties":{"id":"paris-monument-74","name":"Gare de l'Est"},"geometry":{"type":"Point","coordinates":[2.3599,48.8768]}},{"type":"Feature","properties":{"id":"paris-monument-75","name":"Gare de Lyon"},"geometry":{"type":"Point","coordinates":[2.373,48.8443]}},{"type":"Feature","properties":{"id":"paris-monument-76","name":"Gare Saint-Lazare"},"geometry":{"type":"Point","coordinates":[2.3244,48.8763]}},{"type":"Feature","properties":{"id":"paris-monument-77","name":"Gare Montparnasse"},"geometry":{"type":"Point","coordinates":[2.3206,48.8412]}},{"type":"Feature","properties":{"id":"paris-monument-78","name":"Gare d'Austerlitz"},"geometry":{"type":"Point","coordinates":[2.3657,48.8423]}},{"type":"Feature","properties":{"id":"paris-monument-79","name":"Arènes de Lutèce"},"geometry":{"type":"Point","coordinates":[2.3522,48.845]}},{"type":"Feature","properties":{"id":"paris-monument-80","name":"Catacombes de Paris"},"geometry":{"type":"Point","coordinates":[2.3322,48.8339]}},{"type":"Feature","properties":{"id":"paris-monument-81","name":"Palais de la Porte Dorée"},"geometry":{"type":"Point","coordinates":[2.4093,48.8352]}},{"type":"Feature","properties":{"id":"paris-monument-82","name":"Bourse de Commerce - Pinault Collection"},"geometry":{"type":"Point","coordinates":[2.342,48.8628]}},{"type":"Feature","properties":{"id":"paris-monument-83","name":"Palais Brongniart"},"geometry":{"type":"Point","coordinates":[2.3412,48.8693]}},{"type":"Feature","properties":{"id":"paris-monument-84","name":"Tour Saint-Jacques"},"geometry":{"type":"Point","coordinates":[2.3488,48.8581]}},{"type":"Feature","properties":{"id":"paris-monument-85","name":"Fontaine Saint-Michel"},"geometry":{"type":"Point","coordinates":[2.3431,48.8533]}},{"type":"Feature","properties":{"id":"paris-monument-86","name":"Fontaine des Innocents"},"geometry":{"type":"Point","coordinates":[2.3481,48.8605]}},{"type":"Feature","properties":{"id":"paris-monument-87","name":"Fontaine Médicis"},"geometry":{"type":"Point","coordinates":[2.3386,48.8468]}},{"type":"Feature","properties":{"id":"paris-monument-88","name":"Fontaine Stravinsky"},"geometry":{"type":"Point","coordinates":[2.3517,48.8597]}},{"type":"Feature","properties":{"id":"paris-monument-89","name":"Statue de la Liberté"},"geometry":{"type":"Point","coordinates":[2.28,48.85]}},{"type":"Feature","properties":{"id":"paris-monument-90","name":"Flamme de la Liberté"},"geometry":{"type":"Point","coordinates":[2.3009,48.8645]}},{"type":"Feature","properties":{"id":"paris-monument-91","name":"Cité de l'Architecture et du Patrimoine"},"geometry":{"type":"Point","coordinates":[2.2882,48.8629]}},{"type":"Feature","properties":{"id":"paris-monument-92","name":"Musée de l'Armée"},"geometry":{"type":"Point","coordinates":[2.3127,48.8569]}},{"type":"Feature","properties":{"id":"paris-monument-93","name":"Musée national de la Marine"},"geometry":{"type":"Point","coordinates":[2.2882,48.8628]}},{"type":"Feature","properties":{"id":"paris-monument-94","name":"La Géode"},"geometry":{"type":"Point","coordinates":[2.3884,48.8956]}},{"type":"Feature","properties":{"id":"paris-monument-95","name":"Grande Mosquée de Paris"},"geometry":{"type":"Point","coordinates":[2.3554,48.8419]}},{"type":"Feature","properties":{"id":"paris-monument-96","name":"Institut de France"},"geometry":{"type":"Point","coordinates":[2.3378,48.8576]}},{"type":"Feature","properties":{"id":"paris-monument-97","name":"Monnaie de Paris"},"geometry":{"type":"Point","coordinates":[2.3397,48.8564]}},{"type":"Feature","properties":{"id":"paris-monument-98","name":"Collège de France"},"geometry":{"type":"Point","coordinates":[2.3458,48.8493]}},{"type":"Feature","properties":{"id":"paris-monument-99","name":"Sorbonne"},"geometry":{"type":"Point","coordinates":[2.3431,48.8488]}},{"type":"Feature","properties":{"id":"paris-monument-100","name":"École militaire"},"geometry":{"type":"Point","coordinates":[2.3048,48.851]}}]}