{"type":"FeatureCollection","features":[{"type":"Feature","properties":{"id":"paris-monument-1","name":"Tour Eiffel"},"geometry":{"type":"Point","coordinates":[2.2945,48.8584]}},{"type":"Feature","properties":{"id":"paris-monument-2","name":"Musée du Louvre"},"geometry":{"type":"Point","coordinates":[2.3376,48.8606]}},{"type":"Feature","properties":{"id":"paris-monument-3","name":"Cathédrale Notre-Dame de Paris"},"geometry":{"type":"Point","coordinates":[2.3499,48.8529]}},{"type":"Feature","properties":{"id":"paris-monument-4","name":"Arc de Triomphe"},"geometry":{"type":"Point","coordinates":[2.295,48.8738]}},{"type":"Feature","properties":{"id":"paris-monument-5","name":"Sacré-Cœur"},"geometry":{"type":"Point","coordinates":[2.3431,48.8867]}},{"type":"Feature","properties":{"id":"paris-monument-6","name":"Panthéon"},"geometry":{"type":"Point","coordinates":[2.346,48.8462]}},{"type":"Feature","properties":{"id":"paris-monument-7","name":"Opéra Garnier"},"geometry":{"type":"Point","coordinates":[2.3316,48.872]}},{"type":"Feature","properties":{"id":"paris-monument-8","name":"Hôtel de Ville"},"geometry":{"type":"Point","coordinates":[2.3522,48.8566]}},{"type":"Feature","properties":{"id":"paris-monument-9","name":"Centre Pompidou"},"geometry":{"type":"Point","coordinates":[2.3522,48.8606]}},{"type":"Feature","properties":{"id":"paris-monument-10","name":"Musée d'Orsay"},"geometry":{"type":"Point","coordinates":[2.3266,48.86]}},{"type":"Feature","properties":{"id":"paris-monument-11","name":"Invalides"},"geometry":{"type":"Point","coordinates":[2.3126,48.8566]}},{"type":"Feature","properties":{"id":"paris-monument-12","name":"Grand Palais"},"geometry":{"type":"Point","coordinates":[2.3125,48.8661]}},{"type":"Feature","properties":{"id":"paris-monument-13","name":"Petit Palais"},"geometry":{"type":"Point","coordinates":[2.314,48.866]}},{"type":"Feature","properties":{"id":"paris-monument-14","name":"Palais de Chaillot"},"geometry":{"type":"Point","coordinates":[2.2886,48.8629]}},{"type":"Feature","properties":{"id":"paris-monument-15","name":"Palais Royal"},"geometry":{"type":"Point","coordinates":[2.3376,48.8635]}},{"type":"Feature","properties":{"id":"paris-monument-16","name":"Conciergerie"},"geometry":{"type":"Point","coordinates":[2.345,48.8559]}},{"type":"Feature","properties":{"id":"paris-monument-17","name":"Sainte-Chapelle"},"geometry":{"type":"Point","coordinates":[2.345,48.8554]}},{"type":"Feature","properties":{"id":"paris-monument-18","name":"Cimetière du Père-Lachaise"},"geometry":{"type":"Point","coordinates":[2.393,48.8614]}},{"type":"Feature","properties":{"id":"paris-monument-19","name":"Tour Montparnasse"},"geometry":{"type":"Point","coordinates":[2.3211,48.8421]}},{"type":"Feature","properties":{"id":"paris-monument-20","name":"Bibliothèque nationale de France"},"geometry":{"type":"Point","coordinates":[2.3765,48.8337]}},{"type":"Feature","properties":{"id":"paris-monument-21","name":"Institut du Monde Arabe"},"geometry":{"type":"Point","coordinates":[2.356,48.8499]}},{"type":"Feature","properties":{"id":"paris-monument-22","name":"Place de la Bastille"},"geometry":{"type":"Point","coordinates":[2.369,48.8532]}},{"type":"Feature","properties":{"id":"paris-monument-23","name":"Place de la République"},"geometry":{"type":"Point","coordinates":[2.3631,48.8674]}},{"type":"Feature","properties":{"id":"paris-monument-24","name":"Place de la Nation"},"geometry":{"type":"Point","coordinates":[2.3958,48.8484]}},{"type":"Feature","properties":{"id":"paris-monument-25","name":"Canal Saint-Martin"},"geometry":{"type":"Point","coordinates":[2.3662,48.8722]}},{"type":"Feature","properties":{"id":"paris-monument-26","name":"Moulin Rouge"},"geometry":{"type":"Point","coordinates":[2.3322,48.8841]}},{"type":"Feature","properties":{"id":"paris-monument-27","name":"Galeries Lafayette"},"geometry":{"type":"Point","coordinates":[2.3322,48.8738]}},{"type":"Feature","properties":{"id":"paris-monument-28","name":"La Samaritaine"},"geometry":{"type":"Point","coordinates":[2.3422,48.8595]}},{"type":"Feature","properties":{"id":"paris-monument-29","name":"Pont Alexandre III"},"geometry":{"type":"Point","coordinates":[2.3136,48.8639]}},{"type":"Feature","properties":{"id":"paris-monument-30","name":"Pont Neuf"},"geometry":{"type":"Point","coordinates":[2.3417,48.8571]}},{"type":"Feature","properties":{"id":"paris-monument-31","name":"Pont des Arts"},"geometry":{"type":"Point","coordinates":[2.3376,48.8584]}},{"type":"Feature","properties":{"id":"paris-monument-32","name":"Pont de Bir-Hakeim"},"geometry":{"type":"Point","coordinates":[2.2876,48.8557]}},{"type":"Feature","properties":{"id":"paris-monument-33","name":"Parc des Buttes-Chaumont"},"geometry":{"type":"Point","coordinates":[2.3828,48.8809]}},{"type":"Feature","properties":{"id":"paris-monument-34","name":"Parc Monceau"},"geometry":{"type":"Point","coordinates":[2.3097,48.8796]}},{"type":"Feature","properties":{"id":"paris-monument-35","name":"Bois de Boulogne"},"geometry":{"type":"Point","coordinates":[2.2522,48.8635]}},{"type":"Feature","properties":{"id":"paris-monument-36","name":"Bois de Vincennes"},"geometry":{"type":"Point","coordinates":[2.433,48.8283]}}]}
